[{"id":1,"name":"IIT Bombay,Powai","latitude":19.1303,"longitude":72.9188},{"id":2,"name":"Andheri","latitude":19.11227,"longitude":72.84067},{"id":3,"name":"B ward","latitude":18.9461,"longitude":72.82481},{"id":4,"name":"Bandra","latitude":19.05039,"longitude":72.83748},{"id":5,"name":"Byculla","latitude":18.97242,"longitude":72.832},{"id":6,"name":"C ward","latitude":18.9614,"longitude":72.83339},{"id":7,"name":"Chembur","latitude":19.05456,"longitude":72.89361},{"id":8,"name":"Chincholi","latitude":19.1784,"longitude":72.8368},{"id":9,"name":"Colaba","latitude":18.91547,"longitude":72.82608},{"id":10,"name":"D Ward","latitude":18.96262,"longitude":72.81316},{"id":11,"name":"Dahisar","latitude":19.24758,"longitude":72.86253},{"id":12,"name":"Dindoshi","latitude":19.17503,"longitude":72.86099},{"id":13,"name":"F North","latitude":19.02942,"longitude":72.85461},{"id":14,"name":"F South","latitude":19.00593,"longitude":72.83973},{"id":15,"name":"G South","latitude":19.00832,"longitude":72.83038},{"id":16,"name":"Gowanpada","latitude":19.17205,"longitude":72.96637},{"id":17,"name":"H West ward","latitude":19.05639,"longitude":72.8354},{"id":18,"name":"K East ward","latitude":19.12036,"longitude":72.85237},{"id":19,"name":"K West ward","latitude":19.11694,"longitude":72.84639},{"id":20,"name":"Kandivali","latitude":19.20361,"longitude":72.85056},{"id":21,"name":"Kurla","latitude":19.08449,"longitude":72.88607},{"id":22,"name":"L ward","latitude":19.07065,"longitude":72.8792},{"id":23,"name":"M West ward","latitude":19.05497,"longitude":72.89578},{"id":24,"name":"Malvani","latitude":19.19625,"longitude":72.82244},{"id":25,"name":"Marol","latitude":19.10945,"longitude":72.87761},{"id":26,"name":"MCGM 1","latitude":18.94044,"longitude":72.83442},{"id":27,"name":"Memonwada","latitude":18.95782,"longitude":72.83264},{"id":28,"name":"Mulund","latitude":19.17516,"longitude":72.94255},{"id":29,"name":"N ward","latitude":19.08393,"longitude":72.90644},{"id":30,"name":"Nair Hospital","latitude":18.9737,"longitude":72.8227},{"id":31,"name":"Nariman Fire","latitude":18.92307,"longitude":72.8261},{"id":32,"name":"Rawali camp","latitude":19.03552,"longitude":72.86689},{"id":33,"name":"S ward","latitude":19.13903,"longitude":72.93045},{"id":34,"name":"SWD Workshop dadar","latitude":19.01231,"longitude":72.83742},{"id":35,"name":"Thakare natya","latitude":19.23324,"longitude":72.85449},{"id":36,"name":"Vikhroli","latitude":19.10094,"longitude":72.91817},{"id":37,"name":"vileparle W","latitude":19.09292,"longitude":72.8441},{"id":38,"name":"Worli","latitude":19.01306,"longitude":72.82333}]